{"type": "FeatureCollection", "features": [{"type": "Feature", "properties": {"id": "f750c5637b90", "name": "GR 2", "feature_type": "trail"}, "geometry": {"type": "LineString", "coordinates": [[2.4456986, 48.8193143], [2.4455331, 48.8194277], [2.4453789, 48.8195151], [2.4452139, 48.8195919], [2.4451093, 48.8196643], [2.444998, 48.8197667], [2.4449417, 48.819833], [2.4449243, 48.8199442], [2.4449806, 48.8200581], [2.4451227, 48.8202551], [2.4451037, 48.8203027], [2.445073, 48.8203401], [2.444959, 48.8204785], [2.4449274, 48.8206226], [2.4449402, 48.8206817], [2.4449442, 48.820725], [2.444794, 48.8208381], [2.4447048, 48.8209122], [2.4446371, 48.8209615], [2.4441791, 48.8210569], [2.4438451, 48.8211546], [2.4437016, 48.8211946], [2.4435789, 48.8212385], [2.4433744, 48.8212617], [2.4432416, 48.8212557], [2.4430593, 48.8213165], [2.442903, 48.8213874], [2.4427133, 48.8214259], [2.4425992, 48.8214668], [2.4422002, 48.8216857], [2.4422785, 48.8220058], [2.4422156, 48.8220198], [2.4421603, 48.822044], [2.4421164, 48.8220767], [2.4420867, 48.8221158], [2.4420733, 48.8221586], [2.4419407, 48.8222036], [2.4414606, 48.8221096], [2.4412425, 48.8220964], [2.4410245, 48.8221183], [2.44034, 48.8222217], [2.4391062, 48.8223347], [2.4388437, 48.8223362], [2.4383877, 48.8223388], [2.437917, 48.8223904], [2.437503, 48.8224374], [2.4371317, 48.8224377], [2.4364973, 48.8224805], [2.4362143, 48.8225051], [2.4357958, 48.822583], [2.4350936, 48.8227021], [2.434878, 48.8227507], [2.4347362, 48.8228018], [2.4340243, 48.8230864], [2.433836, 48.8232073], [2.433516, 48.8234818], [2.4331763, 48.8238424], [2.4329042, 48.8240874], [2.4327998, 48.8240915], [2.4325304, 48.8240755], [2.4324677, 48.8240678], [2.4323465, 48.8240693], [2.4320753, 48.824116], [2.4317443, 48.8241553], [2.4317224, 48.8242253], [2.4317009, 48.8242699], [2.4313073, 48.8242341], [2.4309482, 48.8242347], [2.4307543, 48.8242801], [2.4305382, 48.8243634], [2.4302685, 48.8244991], [2.4300346, 48.8246564], [2.4299311, 48.8247415], [2.4296325, 48.8251661], [2.4294586, 48.8252983], [2.4293013, 48.8254738], [2.4292062, 48.8256061], [2.4290226, 48.8258614], [2.4287578, 48.8261541], [2.4286218, 48.8262291], [2.4285707, 48.8262837], [2.4284681, 48.8263423], [2.4282519, 48.8264181], [2.4279527, 48.8264611], [2.4277633, 48.8264738], [2.4275557, 48.8264669], [2.4274267, 48.8264664], [2.4272827, 48.8264805], [2.4271809, 48.8265001], [2.4269361, 48.8265598], [2.4266886, 48.8266266], [2.4263638, 48.8267504], [2.4261372, 48.826839], [2.4259913, 48.8269045], [2.4258624, 48.8269762], [2.4256914, 48.8270433], [2.4255407, 48.8270994], [2.4255219, 48.8271531], [2.4254817, 48.8272361], [2.4252993, 48.8273968], [2.4249935, 48.8276175], [2.4249317, 48.8276807], [2.4246421, 48.8279954], [2.4244437, 48.8283556], [2.424323, 48.8285092], [2.4241137, 48.8287458], [2.4240323, 48.828793], [2.42362, 48.8288625], [2.4229322, 48.8289205], [2.4223772, 48.82894], [2.4217644, 48.8289672], [2.4216378, 48.8289625], [2.4215647, 48.8289526], [2.4214443, 48.8289396], [2.4213079, 48.8289196], [2.4210209, 48.8289045], [2.4207915, 48.8289315], [2.4205508, 48.8288851], [2.4202893, 48.8288304], [2.420058, 48.8288105], [2.4197733, 48.8287638], [2.4197321, 48.8287046], [2.4196936, 48.8287135], [2.4196216, 48.8287289], [2.4195435, 48.8287457], [2.4194793, 48.8287584], [2.4193523, 48.8286654], [2.4193184, 48.8286406], [2.4192844, 48.8286156], [2.4192392, 48.8285823], [2.4191106, 48.8287552], [2.4190708, 48.8287694], [2.4190079, 48.8287862], [2.4187504, 48.8289284], [2.4184579, 48.829104], [2.4183992, 48.8291059], [2.4185057, 48.8287312], [2.418408, 48.8284815], [2.4183352, 48.8284009], [2.4181141, 48.8282861], [2.4179175, 48.8282296], [2.4177879, 48.8282227], [2.417583, 48.8282362], [2.4172857, 48.828297], [2.4171073, 48.828361], [2.4168175, 48.8285], [2.4166509, 48.8286138], [2.416434, 48.8287764], [2.4160095, 48.829121], [2.4155587, 48.8295063], [2.4154655, 48.8295915], [2.4151783, 48.8296447], [2.4150924, 48.8294155], [2.4146443, 48.8293318], [2.4141956, 48.8294388], [2.4138236, 48.8295182], [2.4136086, 48.8295724], [2.4135721, 48.8295816], [2.4127824, 48.829811], [2.4122395, 48.8299848], [2.4119282, 48.8301093], [2.4117732, 48.8301652], [2.4113842, 48.8303198], [2.4110977, 48.8304345], [2.4108234, 48.8305548], [2.4105368, 48.8306909], [2.4102671, 48.8308539], [2.4099242, 48.8310678], [2.409487, 48.8313759], [2.4093938, 48.8314568], [2.4092695, 48.8315658], [2.4090881, 48.8317764], [2.408993, 48.83195], [2.4089949, 48.8322069], [2.4089267, 48.8326026], [2.4085745, 48.8329647], [2.4083938, 48.8330595], [2.4084718, 48.8331643], [2.408444, 48.833196], [2.4082486, 48.8334308], [2.4080531, 48.8336986], [2.4079224, 48.8337924], [2.4078545, 48.8338716], [2.4075667, 48.8338697], [2.4075337, 48.8338534], [2.4074876, 48.8338059], [2.4073295, 48.8336903], [2.4071928, 48.8336228], [2.4067417, 48.8334233], [2.406488, 48.8333086], [2.4061756, 48.8332625], [2.4056914, 48.8330552], [2.4055363, 48.8329811], [2.4054734, 48.8329276], [2.405403, 48.8328782], [2.4053439, 48.8328508], [2.4051028, 48.8327391], [2.4049583, 48.8326633], [2.4046662, 48.8325217], [2.4045467, 48.8324637], [2.4044857, 48.8324217], [2.4044637, 48.83235], [2.404296, 48.8323331], [2.4040615, 48.8323141], [2.4040291, 48.8323337], [2.403976, 48.8323659], [2.4039411, 48.8323871], [2.4038281, 48.8324133], [2.4028354, 48.8330873], [2.402585, 48.8332573], [2.4024863, 48.8333211], [2.402467, 48.8333407], [2.4025431, 48.8333705], [2.402533, 48.8333773], [2.4024962, 48.8334022], [2.4024708, 48.8334194], [2.4023421, 48.8333692], [2.4022882, 48.8333497], [2.4021788, 48.8333134], [2.4020533, 48.8332739], [2.402035, 48.8332967], [2.402021, 48.8333142], [2.4020117, 48.8333257], [2.4019895, 48.8333539], [2.4019783, 48.8333677], [2.4019642, 48.8333852], [2.4019442, 48.83341], [2.4015865, 48.8332582], [2.4009718, 48.8330401], [2.399883, 48.8326583], [2.3997958, 48.8327117], [2.3994635, 48.8329112], [2.3994406, 48.832925], [2.3993895, 48.8329597], [2.3992574, 48.8330492], [2.3992046, 48.8330869], [2.3991445, 48.8331271], [2.3990294, 48.8332067], [2.3990077, 48.8332227], [2.3989764, 48.8332445], [2.3989589, 48.8332568], [2.3989427, 48.8332681], [2.3988806, 48.8332233], [2.3974906, 48.8322208], [2.3974114, 48.8321665], [2.3973804, 48.8321399], [2.3973357, 48.8321076], [2.3972957, 48.832078], [2.3973803, 48.8319841], [2.3974711, 48.8319141], [2.3974784, 48.831909], [2.3974948, 48.8318975], [2.3975316, 48.8318718], [2.3976349, 48.8318023], [2.3975654, 48.8317679], [2.3975589, 48.8317647], [2.3974892, 48.83173], [2.397456, 48.8317152], [2.3970592, 48.8315387], [2.3967608, 48.8314059], [2.3962667, 48.8312141], [2.3958864, 48.8310644], [2.3956387, 48.8309825], [2.3948263, 48.8307638], [2.3942867, 48.8306454], [2.394258, 48.8306395], [2.3937823, 48.8305566], [2.393319, 48.8304592], [2.393, 48.8303871], [2.3927565, 48.830334], [2.3927067, 48.8303198], [2.3924326, 48.8302242], [2.3924138, 48.8302483], [2.3923985, 48.8302679], [2.3921222, 48.8301911], [2.3917373, 48.8300887], [2.391276, 48.8299342], [2.3901696, 48.8294822], [2.3898422, 48.8293427], [2.3896144, 48.8292456], [2.3890967, 48.8290302], [2.3887664, 48.8288998], [2.3886038, 48.828828], [2.3885902, 48.8288424], [2.3884752, 48.8289301], [2.3882756, 48.8290485], [2.3879065, 48.8292902], [2.3878228, 48.8293268], [2.3876604, 48.8293956], [2.3874945, 48.8295066], [2.3873754, 48.8295878], [2.3871532, 48.8298493], [2.3872537, 48.8299117], [2.3872363, 48.8299231], [2.3871636, 48.8299698], [2.3871896, 48.8299881], [2.3872499, 48.829949], [2.38726, 48.829956], [2.387275, 48.8299663], [2.3871844, 48.8300268], [2.3869634, 48.8303425], [2.3868761, 48.8305423], [2.3868453, 48.8305395], [2.3867903, 48.8305346], [2.3867525, 48.8305296], [2.3867059, 48.8305235], [2.3866843, 48.8305323], [2.3866197, 48.8305587], [2.3865433, 48.8305922], [2.3864817, 48.8306456], [2.3864324, 48.8306938], [2.3863846, 48.8307369], [2.3863753, 48.8307452], [2.3863527, 48.8307656], [2.3863768, 48.8307762], [2.3864277, 48.8307991], [2.3864968, 48.8308294], [2.3864552, 48.8308676], [2.3865223, 48.8308938], [2.3862734, 48.8310903], [2.3861682, 48.8311734], [2.3857337, 48.8315248], [2.3856634, 48.8315716], [2.3855912, 48.8316158], [2.385559, 48.8316355], [2.3855293, 48.831617], [2.3854599, 48.8316571], [2.3854, 48.8316916], [2.3853596, 48.8317173], [2.3846332, 48.8321785], [2.3845444, 48.832235], [2.3845946, 48.8322725], [2.3844919, 48.8323218], [2.3843077, 48.8324693], [2.3842534, 48.8325132], [2.3838621, 48.8328302], [2.3838767, 48.8328675], [2.3836238, 48.8330696], [2.3834952, 48.8331724], [2.38291, 48.8336356], [2.3828244, 48.8336597], [2.382451, 48.8339564], [2.3824112, 48.834023], [2.3817737, 48.8345385], [2.3806922, 48.8353986], [2.3797679, 48.8361196], [2.379649, 48.8361117], [2.3795524, 48.836059], [2.378603, 48.8355411], [2.3775172, 48.8349525], [2.3774679, 48.8349257], [2.3774285, 48.8349539], [2.3768722, 48.8346465], [2.3767968, 48.8347049], [2.3763518, 48.83505], [2.3763936, 48.8350723], [2.3763839, 48.8350813], [2.3763151, 48.835135], [2.3764056, 48.8351728], [2.376268, 48.8352962], [2.375842, 48.8356866], [2.375601, 48.8359109], [2.3751035, 48.8363858], [2.374818, 48.8366575], [2.3748603, 48.8367719], [2.3743459, 48.837263], [2.3743034, 48.837337], [2.3742889, 48.8374587], [2.3739412, 48.8377492], [2.3739336, 48.8377556], [2.3739155, 48.8377708], [2.3738069, 48.83786], [2.3734965, 48.8381152], [2.3733426, 48.8382475], [2.3733049, 48.8383255], [2.3732669, 48.838404], [2.372227, 48.8393303], [2.3720659, 48.8395044], [2.3714143, 48.839977], [2.3709374, 48.8403229], [2.3693575, 48.8414652], [2.3692323, 48.8415461], [2.3691416, 48.8416105], [2.3690414, 48.8416826], [2.3676659, 48.8426721], [2.3675656, 48.8427442], [2.3673853, 48.8428739], [2.3671423, 48.8429215], [2.3668285, 48.8431464], [2.3665826, 48.8434621], [2.3660788, 48.8438401], [2.365954, 48.8438778], [2.3659186, 48.8438624], [2.3657841, 48.8439441], [2.365583, 48.8441281], [2.3655152, 48.8441814], [2.365017, 48.8445623], [2.3648802, 48.8446481], [2.3645477, 48.8448144], [2.3644639, 48.8449045], [2.3644033, 48.845046], [2.3636646, 48.8455468], [2.3635144, 48.8455144], [2.3635402, 48.8455571], [2.3631978, 48.8457983], [2.3632459, 48.8459237], [2.3630801, 48.8460329], [2.3628555, 48.8461716], [2.3628421, 48.8462695], [2.362623, 48.8464769], [2.3624434, 48.8465865], [2.3622163, 48.8467139], [2.3620098, 48.8468322], [2.3619399, 48.8468723], [2.3616666, 48.8469968], [2.3615859, 48.8470076], [2.3615127, 48.8470174], [2.3613124, 48.84712], [2.3612398, 48.8472214], [2.3611358, 48.8473852], [2.361074, 48.8474274], [2.3610311, 48.8474731], [2.3609344, 48.8475867], [2.3607806, 48.8476843], [2.3605734, 48.8477815], [2.3604506, 48.8479032], [2.360296, 48.8479721], [2.3601212, 48.8480939], [2.3599855, 48.8482916], [2.3598688, 48.8483483], [2.3596408, 48.8484592], [2.359481, 48.8485472], [2.3592716, 48.848681], [2.3592176, 48.8487428], [2.3591451, 48.8488278], [2.3589543, 48.8489748], [2.3585927, 48.8490667], [2.3584343, 48.849104], [2.3577757, 48.8492123], [2.3577363, 48.8492123], [2.357687, 48.8491882], [2.3575742, 48.8491173], [2.357461, 48.8491708], [2.3572919, 48.8492286], [2.3572253, 48.8492523], [2.3570938, 48.849301], [2.3570297, 48.8493218], [2.3568374, 48.8493868], [2.3567581, 48.8494121], [2.3568366, 48.8494329], [2.3569213, 48.8494623], [2.3569707, 48.8494749], [2.3588237, 48.8500386], [2.3589305, 48.8500708], [2.3589985, 48.8500938], [2.3589391, 48.8501137], [2.3589237, 48.8501185], [2.3588479, 48.8501463], [2.3585862, 48.8502382], [2.3585159, 48.8502611], [2.3584541, 48.8502818], [2.3575983, 48.8505672], [2.3575168, 48.8505947], [2.3564514, 48.8509437], [2.3560443, 48.8510917], [2.3559179, 48.8511377], [2.3557867, 48.8511924], [2.3557063, 48.8512238], [2.3556253, 48.8512492], [2.3552977, 48.8513326], [2.3552545, 48.8513444], [2.3551181, 48.851381], [2.3542181, 48.8516123], [2.3541599, 48.8516311], [2.3541412, 48.8516412], [2.3541158, 48.8516693], [2.3539534, 48.8518658], [2.353681, 48.8521676], [2.3533826, 48.8525023], [2.3533224, 48.8527738], [2.3533008, 48.8528801], [2.3532251, 48.8528679], [2.3531839, 48.8528602], [2.3523113, 48.8526669], [2.3522069, 48.8526464], [2.352214, 48.8525865], [2.3521525, 48.8525882], [2.3520404, 48.8525984], [2.3519829, 48.8526024], [2.3518087, 48.8525601], [2.3517615, 48.8523514], [2.351711, 48.8522766], [2.3516696, 48.8522123], [2.3516442, 48.852174], [2.3516369, 48.8521438], [2.3516335, 48.8521299], [2.3516033, 48.8520821], [2.3514889, 48.8519006], [2.3507488, 48.8520674], [2.3500818, 48.8522406], [2.349747, 48.8523377], [2.3487112, 48.8527194], [2.3485699, 48.8527678], [2.3487634, 48.853034], [2.3481136, 48.8532461], [2.3477176, 48.8533698], [2.3475456, 48.8534658], [2.3475263, 48.8534782], [2.3475112, 48.8534924], [2.3474966, 48.8535094], [2.3474892, 48.85352], [2.3474847, 48.8535291], [2.3474639, 48.8535714], [2.3474234, 48.8535663], [2.3472692, 48.8535736], [2.3471139, 48.8535923]]}}, {"type": "Feature", "properties": {"feature_type": "station", "name": "CFA - Andrieu", "code": "22658", "transport_type": "bus", "distance_from_start_km": 0.0, "station_index": 0}, "geometry": {"type": "Point", "coordinates": [2.4465566, 48.8179915]}}, {"type": "Feature", "properties": {"feature_type": "station", "name": "Passerelle de Charentonneau", "code": "37755", "transport_type": "bus", "distance_from_start_km": 0.1, "station_index": 1}, "geometry": {"type": "Point", "coordinates": [2.4439405, 48.8178498]}}, {"type": "Feature", "properties": {"feature_type": "station", "name": "Plateau de Gravelle", "code": "463660", "transport_type": "bus", "distance_from_start_km": 0.1, "station_index": 2}, "geometry": {"type": "Point", "coordinates": [2.445056, 48.820129]}}, {"type": "Feature", "properties": {"feature_type": "station", "name": "Mortemart", "code": "463951", "transport_type": "bus", "distance_from_start_km": 0.2, "station_index": 3}, "geometry": {"type": "Point", "coordinates": [2.4539598, 48.8275246]}}, {"type": "Feature", "properties": {"feature_type": "station", "name": "Cartoucherie", "code": "28057", "transport_type": "bus", "distance_from_start_km": 0.2, "station_index": 4}, "geometry": {"type": "Point", "coordinates": [2.449858, 48.8347936]}}, {"type": "Feature", "properties": {"feature_type": "station", "name": "Cartoucherie", "code": "28056", "transport_type": "bus", "distance_from_start_km": 0.5, "station_index": 5}, "geometry": {"type": "Point", "coordinates": [2.4489644, 48.8346621]}}, {"type": "Feature", "properties": {"feature_type": "station", "name": "Plaine de la Faluère", "code": "28052", "transport_type": "bus", "distance_from_start_km": 0.5, "station_index": 6}, "geometry": {"type": "Point", "coordinates": [2.4442169, 48.8344774]}}, {"type": "Feature", "properties": {"feature_type": "station", "name": "Maréchal Leclerc", "code": "422968", "transport_type": "bus", "distance_from_start_km": 0.7, "station_index": 7}, "geometry": {"type": "Point", "coordinates": [2.439184, 48.8183142]}}, {"type": "Feature", "properties": {"feature_type": "station", "name": "Moulin Brûlé", "code": "27574", "transport_type": "bus", "distance_from_start_km": 0.8, "station_index": 8}, "geometry": {"type": "Point", "coordinates": [2.4367893, 48.8155722]}}, {"type": "Feature", "properties": {"feature_type": "station", "name": "Route de la Terrasse", "code": "463669", "transport_type": "bus", "distance_from_start_km": 0.9, "station_index": 9}, "geometry": {"type": "Point", "coordinates": [2.4367278, 48.8195612]}}, {"type": "Feature", "properties": {"feature_type": "station", "name": "Stade - Métro", "code": "25902", "transport_type": "bus", "distance_from_start_km": 0.9, "station_index": 10}, "geometry": {"type": "Point", "coordinates": [2.4353466, 48.8088366]}}, {"type": "Feature", "properties": {"feature_type": "station", "name": "Route de la Terrasse", "code": "463653", "transport_type": "bus", "distance_from_start_km": 0.9, "station_index": 11}, "geometry": {"type": "Point", "coordinates": [2.4359562, 48.8199876]}}, {"type": "Feature", "properties": {"feature_type": "station", "name": "8 Mai 1945", "code": "13141304779", "transport_type": "bus", "distance_from_start_km": 1.0, "station_index": 12}, "geometry": {"type": "Point", "coordinates": [2.4333885, 48.8101533]}}, {"type": "Feature", "properties": {"feature_type": "station", "name": "11 Novembre 1918", "code": "12474526470", "transport_type": "bus", "distance_from_start_km": 1.0, "station_index": 13}, "geometry": {"type": "Point", "coordinates": [2.4320112, 48.8064686]}}, {"type": "Feature", "properties": {"feature_type": "station", "name": "Passerelle de Saint-Maurice", "code": "39540", "transport_type": "bus", "distance_from_start_km": 1.0, "station_index": 14}, "geometry": {"type": "Point", "coordinates": [2.4339384, 48.818173]}}, {"type": "Feature", "properties": {"feature_type": "station", "name": "Maisons-Alfort - Alfortville", "code": "MFA", "transport_type": "train", "distance_from_start_km": 1.0, "station_index": 15}, "geometry": {"type": "Point", "coordinates": [2.4264491, 48.8023251]}}, {"type": "Feature", "properties": {"feature_type": "station", "name": "Professeur Cadiot", "code": "39606", "transport_type": "bus", "distance_from_start_km": 1.1, "station_index": 16}, "geometry": {"type": "Point", "coordinates": [2.4278775, 48.8066237]}}, {"type": "Feature", "properties": {"feature_type": "station", "name": "Vacassy - Santé Publique", "code": "463637", "transport_type": "bus", "distance_from_start_km": 1.1, "station_index": 17}, "geometry": {"type": "Point", "coordinates": [2.4328012, 48.8220456]}}, {"type": "Feature", "properties": {"feature_type": "station", "name": "Parc Floral", "code": "5007500897", "transport_type": "bus", "distance_from_start_km": 1.2, "station_index": 18}, "geometry": {"type": "Point", "coordinates": [2.4393171, 48.8406016]}}, {"type": "Feature", "properties": {"feature_type": "station", "name": "Hôpital Esquirol", "code": "25809", "transport_type": "bus", "distance_from_start_km": 1.4, "station_index": 19}, "geometry": {"type": "Point", "coordinates": [2.4302224, 48.8179594]}}, {"type": "Feature", "properties": {"feature_type": "station", "name": "Ernest Renan", "code": "25908", "transport_type": "bus", "distance_from_start_km": 1.4, "station_index": 20}, "geometry": {"type": "Point", "coordinates": [2.4278174, 48.8125776]}}, {"type": "Feature", "properties": {"feature_type": "station", "name": "Mairie de Saint-Maurice", "code": "25807", "transport_type": "bus", "distance_from_start_km": 1.4, "station_index": 21}, "geometry": {"type": "Point", "coordinates": [2.427698, 48.8179075]}}, {"type": "Feature", "properties": {"feature_type": "station", "name": "Paul Bert", "code": "39530", "transport_type": "bus", "distance_from_start_km": 1.4, "station_index": 22}, "geometry": {"type": "Point", "coordinates": [2.4255315, 48.815319]}}, {"type": "Feature", "properties": {"feature_type": "station", "name": "École Vétérinaire de Maisons-Alfort", "code": "22420", "transport_type": "bus", "distance_from_start_km": 1.5, "station_index": 23}, "geometry": {"type": "Point", "coordinates": [2.4228698, 48.8147321]}}, {"type": "Feature", "properties": {"feature_type": "station", "name": "Val d'Osne", "code": "25812", "transport_type": "bus", "distance_from_start_km": 1.5, "station_index": 24}, "geometry": {"type": "Point", "coordinates": [2.4243374, 48.818563]}}, {"type": "Feature", "properties": {"feature_type": "station", "name": "Pyramide - Parc Floral", "code": "463944", "transport_type": "bus", "distance_from_start_km": 1.7, "station_index": 25}, "geometry": {"type": "Point", "coordinates": [2.4374655, 48.8394077]}}, {"type": "Feature", "properties": {"feature_type": "station", "name": "École Veterinaire de Maisons-Alfort-Métro", "code": "37926", "transport_type": "bus", "distance_from_start_km": 1.8, "station_index": 26}, "geometry": {"type": "Point", "coordinates": [2.4218891, 48.8147986]}}, {"type": "Feature", "properties": {"feature_type": "station", "name": "Épinettes", "code": "25808", "transport_type": "bus", "distance_from_start_km": 1.9, "station_index": 27}, "geometry": {"type": "Point", "coordinates": [2.4232272, 48.8199477]}}, {"type": "Feature", "properties": {"feature_type": "station", "name": "Hopitaux de Saint-Maurice", "code": "463661", "transport_type": "bus", "distance_from_start_km": 1.9, "station_index": 28}, "geometry": {"type": "Point", "coordinates": [2.4221023, 48.8240073]}}, {"type": "Feature", "properties": {"feature_type": "station", "name": "Hopitaux de Saint-Maurice", "code": "463656", "transport_type": "bus", "distance_from_start_km": 2.0, "station_index": 29}, "geometry": {"type": "Point", "coordinates": [2.4220317, 48.8241528]}}, {"type": "Feature", "properties": {"feature_type": "station", "name": "Tourelle - Daumesnil", "code": "24803", "transport_type": "bus", "distance_from_start_km": 2.1, "station_index": 30}, "geometry": {"type": "Point", "coordinates": [2.4295113, 48.8393303]}}, {"type": "Feature", "properties": {"feature_type": "station", "name": "Les Laitières", "code": "24736", "transport_type": "bus", "distance_from_start_km": 2.2, "station_index": 31}, "geometry": {"type": "Point", "coordinates": [2.4258123, 48.8495268]}}, {"type": "Feature", "properties": {"feature_type": "station", "name": "Aubert", "code": "25713", "transport_type": "bus", "distance_from_start_km": 2.3, "station_index": 32}, "geometry": {"type": "Point", "coordinates": [2.4223642, 48.8455563]}}, {"type": "Feature", "properties": {"feature_type": "station", "name": "Demi-Lune - Parc Zoologique", "code": "30113", "transport_type": "bus", "distance_from_start_km": 2.3, "station_index": 33}, "geometry": {"type": "Point", "coordinates": [2.4211831, 48.8355247]}}, {"type": "Feature", "properties": {"feature_type": "station", "name": "Demi-Lune - Parc Zoologique", "code": "24516", "transport_type": "bus", "distance_from_start_km": 2.4, "station_index": 34}, "geometry": {"type": "Point", "coordinates": [2.4201923, 48.8345773]}}, {"type": "Feature", "properties": {"feature_type": "station", "name": "Caserne des Gardes", "code": "24517", "transport_type": "bus", "distance_from_start_km": 2.5, "station_index": 35}, "geometry": {"type": "Point", "coordinates": [2.4198367, 48.8288993]}}, {"type": "Feature", "properties": {"feature_type": "station", "name": "Verdun", "code": "39541", "transport_type": "bus", "distance_from_start_km": 2.5, "station_index": 36}, "geometry": {"type": "Point", "coordinates": [2.4205385, 48.82224]}}, {"type": "Feature", "properties": {"feature_type": "station", "name": "Demi-Lune - Parc Zoologique", "code": "25378", "transport_type": "bus", "distance_from_start_km": 2.6, "station_index": 37}, "geometry": {"type": "Point", "coordinates": [2.4194159, 48.8353433]}}, {"type": "Feature", "properties": {"feature_type": "station", "name": "Verdun", "code": "13214", "transport_type": "bus", "distance_from_start_km": 2.7, "station_index": 38}, "geometry": {"type": "Point", "coordinates": [2.4188418, 48.8231719]}}, {"type": "Feature", "properties": {"feature_type": "station", "name": "Maisons-Alfort - École Vétérinaire", "code": "37158", "transport_type": "bus", "distance_from_start_km": 2.7, "station_index": 39}, "geometry": {"type": "Point", "coordinates": [2.4183524, 48.8150933]}}, {"type": "Feature", "properties": {"feature_type": "station", "name": "Général de Gaulle", "code": "37315", "transport_type": "bus", "distance_from_start_km": 2.8, "station_index": 40}, "geometry": {"type": "Point", "coordinates": [2.4146745, 48.8146124]}}, {"type": "Feature", "properties": {"feature_type": "station", "name": "Charenton - Écoles", "code": "10266304189", "transport_type": "bus", "distance_from_start_km": 2.8, "station_index": 41}, "geometry": {"type": "Point", "coordinates": [2.4155365, 48.8218792]}}, {"type": "Feature", "properties": {"feature_type": "station", "name": "Chinagora", "code": "37316", "transport_type": "bus", "distance_from_start_km": 2.8, "station_index": 42}, "geometry": {"type": "Point", "coordinates": [2.4112716, 48.8146295]}}, {"type": "Feature", "properties": {"feature_type": "station", "name": "Alphand", "code": "9133", "transport_type": "bus", "distance_from_start_km": 3.0, "station_index": 43}, "geometry": {"type": "Point", "coordinates": [2.4169946, 48.8341773]}}, {"type": "Feature", "properties": {"feature_type": "station", "name": "Parc Zoologique", "code": "37532", "transport_type": "bus", "distance_from_start_km": 3.0, "station_index": 44}, "geometry": {"type": "Point", "coordinates": [2.4148672, 48.833682]}}, {"type": "Feature", "properties": {"feature_type": "station", "name": "Gravelle - Jaurès", "code": "463665", "transport_type": "bus", "distance_from_start_km": 3.1, "station_index": 45}, "geometry": {"type": "Point", "coordinates": [2.4133907, 48.8246485]}}, {"type": "Feature", "properties": {"feature_type": "station", "name": "Victor Hugo", "code": "39473", "transport_type": "bus", "distance_from_start_km": 3.1, "station_index": 46}, "geometry": {"type": "Point", "coordinates": [2.4111507, 48.819233]}}, {"type": "Feature", "properties": {"feature_type": "station", "name": "Gravelle - Jaurès", "code": "463678", "transport_type": "bus", "distance_from_start_km": 3.2, "station_index": 47}, "geometry": {"type": "Point", "coordinates": [2.411848, 48.8248459]}}, {"type": "Feature", "properties": {"feature_type": "station", "name": "Théâtre de Charenton", "code": "25787", "transport_type": "bus", "distance_from_start_km": 3.2, "station_index": 48}, "geometry": {"type": "Point", "coordinates": [2.4103627, 48.8236159]}}, {"type": "Feature", "properties": {"feature_type": "station", "name": "Les Berges de Charenton", "code": "8450", "transport_type": "bus", "distance_from_start_km": 3.2, "station_index": 49}, "geometry": {"type": "Point", "coordinates": [2.4079226, 48.8190666]}}, {"type": "Feature", "properties": {"feature_type": "station", "name": "Les Berges de Charenton", "code": "25732", "transport_type": "bus", "distance_from_start_km": 3.3, "station_index": 50}, "geometry": {"type": "Point", "coordinates": [2.4065873, 48.8195076]}}, {"type": "Feature", "properties": {"feature_type": "station", "name": "Gravelle - Liberté", "code": "463664", "transport_type": "bus", "distance_from_start_km": 3.4, "station_index": 51}, "geometry": {"type": "Point", "coordinates": [2.4080604, 48.8260153]}}, {"type": "Feature", "properties": {"feature_type": "station", "name": "Liberté", "code": "25788", "transport_type": "bus", "distance_from_start_km": 3.4, "station_index": 52}, "geometry": {"type": "Point", "coordinates": [2.4072437, 48.8255851]}}, {"type": "Feature", "properties": {"feature_type": "station", "name": "Gravelle - Liberté", "code": "463680", "transport_type": "bus", "distance_from_start_km": 3.4, "station_index": 53}, "geometry": {"type": "Point", "coordinates": [2.4072613, 48.8267623]}}, {"type": "Feature", "properties": {"feature_type": "station", "name": "Liberté-Métro", "code": "26741", "transport_type": "bus", "distance_from_start_km": 3.5, "station_index": 54}, "geometry": {"type": "Point", "coordinates": [2.4064094, 48.8262972]}}, {"type": "Feature", "properties": {"feature_type": "station", "name": "Parc Zoologique", "code": "1244401760", "transport_type": "bus", "distance_from_start_km": 3.6, "station_index": 55}, "geometry": {"type": "Point", "coordinates": [2.4116845, 48.8343511]}}, {"type": "Feature", "properties": {"feature_type": "station", "name": "Mairie de Saint-Mandé", "code": "24823", "transport_type": "bus", "distance_from_start_km": 3.8, "station_index": 56}, "geometry": {"type": "Point", "coordinates": [2.4176013, 48.8429112]}}, {"type": "Feature", "properties": {"feature_type": "station", "name": "Montempoivre", "code": "40001", "transport_type": "bus", "distance_from_start_km": 3.8, "station_index": 57}, "geometry": {"type": "Point", "coordinates": [2.4086886, 48.8399135]}}, {"type": "Feature", "properties": {"feature_type": "station", "name": "Porte Dorée", "code": "24801", "transport_type": "bus", "distance_from_start_km": 3.8, "station_index": 58}, "geometry": {"type": "Point", "coordinates": [2.4071651, 48.8350772]}}, {"type": "Feature", "properties": {"feature_type": "station", "name": "Porte Dorée - Daumesnil", "code": "25525", "transport_type": "bus", "distance_from_start_km": 3.9, "station_index": 59}, "geometry": {"type": "Point", "coordinates": [2.4060024, 48.8356759]}}, {"type": "Feature", "properties": {"feature_type": "station", "name": "Porte Dorée", "code": "7832259452", "transport_type": "bus", "distance_from_start_km": 4.0, "station_index": 60}, "geometry": {"type": "Point", "coordinates": [2.4058237, 48.8351786]}}, {"type": "Feature", "properties": {"feature_type": "station", "name": "Gravelle - Reuilly", "code": "463682", "transport_type": "bus", "distance_from_start_km": 4.1, "station_index": 61}, "geometry": {"type": "Point", "coordinates": [2.40469, 48.8286647]}}, {"type": "Feature", "properties": {"feature_type": "station", "name": "Félix Langlais", "code": "25790", "transport_type": "bus", "distance_from_start_km": 4.2, "station_index": 62}, "geometry": {"type": "Point", "coordinates": [2.4018636, 48.8291695]}}, {"type": "Feature", "properties": {"feature_type": "station", "name": "Michel Bizot", "code": "2280", "transport_type": "bus", "distance_from_start_km": 4.3, "station_index": 63}, "geometry": {"type": "Point", "coordinates": [2.4030932, 48.8367309]}}, {"type": "Feature", "properties": {"feature_type": "station", "name": "Picpus", "code": "29432", "transport_type": "bus", "distance_from_start_km": 4.4, "station_index": 64}, "geometry": {"type": "Point", "coordinates": [2.4013928, 48.8451052]}}, {"type": "Feature", "properties": {"feature_type": "station", "name": "Porte de Reuilly", "code": "25335", "transport_type": "bus", "distance_from_start_km": 4.5, "station_index": 65}, "geometry": {"type": "Point", "coordinates": [2.400212, 48.834155]}}, {"type": "Feature", "properties": {"feature_type": "station", "name": "Wattignies - Gravelle", "code": "23512", "transport_type": "bus", "distance_from_start_km": 4.6, "station_index": 66}, "geometry": {"type": "Point", "coordinates": [2.3973505, 48.8355974]}}, {"type": "Feature", "properties": {"feature_type": "station", "name": "Daumesnil - Félix Éboué", "code": "27097", "transport_type": "bus", "distance_from_start_km": 4.7, "station_index": 67}, "geometry": {"type": "Point", "coordinates": [2.3938456, 48.8389204]}}, {"type": "Feature", "properties": {"feature_type": "station", "name": "Porte de Charenton", "code": "40518", "transport_type": "bus", "distance_from_start_km": 4.8, "station_index": 68}, "geometry": {"type": "Point", "coordinates": [2.3976172, 48.8322566]}}, {"type": "Feature", "properties": {"feature_type": "station", "name": "Nicolai", "code": "25337", "transport_type": "bus", "distance_from_start_km": 4.8, "station_index": 69}, "geometry": {"type": "Point", "coordinates": [2.394227, 48.8363984]}}, {"type": "Feature", "properties": {"feature_type": "station", "name": "Charenton - Jardiniers", "code": "25338", "transport_type": "bus", "distance_from_start_km": 4.8, "station_index": 70}, "geometry": {"type": "Point", "coordinates": [2.3958863, 48.8329527]}}, {"type": "Feature", "properties": {"feature_type": "station", "name": "Porte de Charenton", "code": "7832259448", "transport_type": "bus", "distance_from_start_km": 4.9, "station_index": 71}, "geometry": {"type": "Point", "coordinates": [2.3983797, 48.8318482]}}, {"type": "Feature", "properties": {"feature_type": "station", "name": "Pont Nelson Mandela", "code": "37924", "transport_type": "bus", "distance_from_start_km": 4.9, "station_index": 72}, "geometry": {"type": "Point", "coordinates": [2.4016985, 48.8207831]}}, {"type": "Feature", "properties": {"feature_type": "station", "name": "Pont Nelson Mandela - Rives de Bercy", "code": "27589", "transport_type": "bus", "distance_from_start_km": 5.0, "station_index": 73}, "geometry": {"type": "Point", "coordinates": [2.4001116, 48.8222674]}}, {"type": "Feature", "properties": {"feature_type": "station", "name": "Port aux Lions", "code": "37925", "transport_type": "bus", "distance_from_start_km": 5.0, "station_index": 74}, "geometry": {"type": "Point", "coordinates": [2.398591, 48.8221915]}}, {"type": "Feature", "properties": {"feature_type": "station", "name": "Vaillant-Couturier - Lénine", "code": "462447", "transport_type": "bus", "distance_from_start_km": 5.1, "station_index": 75}, "geometry": {"type": "Point", "coordinates": [2.3985051, 48.8183228]}}, {"type": "Feature", "properties": {"feature_type": "station", "name": "Nicolaï", "code": "13564401135", "transport_type": "bus", "distance_from_start_km": 5.1, "station_index": 76}, "geometry": {"type": "Point", "coordinates": [2.393638, 48.8356968]}}, {"type": "Feature", "properties": {"feature_type": "station", "name": "Insurrection d'Août 1944", "code": "24371", "transport_type": "bus", "distance_from_start_km": 5.1, "station_index": 77}, "geometry": {"type": "Point", "coordinates": [2.3990789, 48.8145123]}}, {"type": "Feature", "properties": {"feature_type": "station", "name": "Vaillant-Couturier – Westermeyer", "code": "37154", "transport_type": "bus", "distance_from_start_km": 5.1, "station_index": 78}, "geometry": {"type": "Point", "coordinates": [2.3967072, 48.8193042]}}, {"type": "Feature", "properties": {"feature_type": "station", "name": "Nicolai", "code": "25339", "transport_type": "bus", "distance_from_start_km": 5.2, "station_index": 79}, "geometry": {"type": "Point", "coordinates": [2.3929995, 48.8350811]}}, {"type": "Feature", "properties": {"feature_type": "station", "name": "Centre Commercial", "code": "25730", "transport_type": "bus", "distance_from_start_km": 5.2, "station_index": 80}, "geometry": {"type": "Point", "coordinates": [2.3948398, 48.824883]}}, {"type": "Feature", "properties": {"feature_type": "station", "name": "Dubrunfaut", "code": "29425", "transport_type": "bus", "distance_from_start_km": 5.2, "station_index": 81}, "geometry": {"type": "Point", "coordinates": [2.3910974, 48.8407327]}}, {"type": "Feature", "properties": {"feature_type": "station", "name": "Baron Le Roy", "code": "413063", "transport_type": "bus", "distance_from_start_km": 5.2, "station_index": 82}, "geometry": {"type": "Point", "coordinates": [2.3931881, 48.8304638]}}, {"type": "Feature", "properties": {"feature_type": "station", "name": "Charenton - Wattignies", "code": "25336", "transport_type": "bus", "distance_from_start_km": 5.2, "station_index": 83}, "geometry": {"type": "Point", "coordinates": [2.3915112, 48.8371353]}}, {"type": "Feature", "properties": {"feature_type": "station", "name": "Bercy", "code": "28738", "transport_type": "bus", "distance_from_start_km": 5.3, "station_index": 84}, "geometry": {"type": "Point", "coordinates": [2.3929133, 48.8276644]}}, {"type": "Feature", "properties": {"feature_type": "station", "name": "Baron Le Roy", "code": "25784", "transport_type": "bus", "distance_from_start_km": 5.3, "station_index": 85}, "geometry": {"type": "Point", "coordinates": [2.3923363, 48.8299861]}}, {"type": "Feature", "properties": {"feature_type": "station", "name": "Victor Hugo - Bretagne", "code": "25374", "transport_type": "bus", "distance_from_start_km": 5.5, "station_index": 86}, "geometry": {"type": "Point", "coordinates": [2.3922346, 48.8225495]}}, {"type": "Feature", "properties": {"feature_type": "station", "name": "Jean-Jacques Rousseau", "code": "463691", "transport_type": "bus", "distance_from_start_km": 5.6, "station_index": 87}, "geometry": {"type": "Point", "coordinates": [2.39385, 48.818178]}}, {"type": "Feature", "properties": {"feature_type": "station", "name": "Pont National - Quai de Bercy", "code": "9802559874", "transport_type": "bus", "distance_from_start_km": 5.6, "station_index": 88}, "geometry": {"type": "Point", "coordinates": [2.3891566, 48.8281337]}}, {"type": "Feature", "properties": {"feature_type": "station", "name": "Bruneseau", "code": "25375", "transport_type": "bus", "distance_from_start_km": 5.6, "station_index": 89}, "geometry": {"type": "Point", "coordinates": [2.3890793, 48.8249006]}}, {"type": "Feature", "properties": {"feature_type": "station", "name": "Rue des Jardins", "code": "413078", "transport_type": "bus", "distance_from_start_km": 5.7, "station_index": 90}, "geometry": {"type": "Point", "coordinates": [2.3797055, 48.8203621]}}, {"type": "Feature", "properties": {"feature_type": "station", "name": "Terroirs de France", "code": "414774", "transport_type": "bus", "distance_from_start_km": 5.9, "station_index": 91}, "geometry": {"type": "Point", "coordinates": [2.3875552, 48.8315388]}}, {"type": "Feature", "properties": {"feature_type": "station", "name": "Watt", "code": "37310", "transport_type": "bus", "distance_from_start_km": 5.9, "station_index": 92}, "geometry": {"type": "Point", "coordinates": [2.3842951, 48.8284685]}}, {"type": "Feature", "properties": {"feature_type": "station", "name": "Baron le Roy", "code": "39471", "transport_type": "bus", "distance_from_start_km": 6.0, "station_index": 93}, "geometry": {"type": "Point", "coordinates": [2.3883734, 48.8342715]}}, {"type": "Feature", "properties": {"feature_type": "station", "name": "Watt", "code": "37312", "transport_type": "bus", "distance_from_start_km": 6.1, "station_index": 94}, "geometry": {"type": "Point", "coordinates": [2.3837342, 48.8291955]}}, {"type": "Feature", "properties": {"feature_type": "station", "name": "Porte de France", "code": "427001", "transport_type": "bus", "distance_from_start_km": 6.2, "station_index": 95}, "geometry": {"type": "Point", "coordinates": [2.3813528, 48.8274524]}}, {"type": "Feature", "properties": {"feature_type": "station", "name": "Thomas Mann", "code": "37311", "transport_type": "bus", "distance_from_start_km": 6.2, "station_index": 96}, "geometry": {"type": "Point", "coordinates": [2.3819753, 48.8303724]}}, {"type": "Feature", "properties": {"feature_type": "station", "name": "Dugommier", "code": "25894", "transport_type": "bus", "distance_from_start_km": 6.3, "station_index": 97}, "geometry": {"type": "Point", "coordinates": [2.3887198, 48.8389826]}}, {"type": "Feature", "properties": {"feature_type": "station", "name": "Dijon - Lachambeaudie", "code": "27102", "transport_type": "bus", "distance_from_start_km": 6.3, "station_index": 98}, "geometry": {"type": "Point", "coordinates": [2.3857541, 48.8355914]}}, {"type": "Feature", "properties": {"feature_type": "station", "name": "Lachambeaudie", "code": "8448", "transport_type": "bus", "distance_from_start_km": 6.3, "station_index": 99}, "geometry": {"type": "Point", "coordinates": [2.3858274, 48.8358949]}}, {"type": "Feature", "properties": {"feature_type": "station", "name": "Cour Saint-Émilion", "code": "13597500916", "transport_type": "bus", "distance_from_start_km": 6.3, "station_index": 100}, "geometry": {"type": "Point", "coordinates": [2.3850221, 48.8351943]}}, {"type": "Feature", "properties": {"feature_type": "station", "name": "Dugommier", "code": "463525", "transport_type": "bus", "distance_from_start_km": 6.3, "station_index": 101}, "geometry": {"type": "Point", "coordinates": [2.3876205, 48.8389602]}}, {"type": "Feature", "properties": {"feature_type": "station", "name": "Parc de Bercy", "code": "27100", "transport_type": "bus", "distance_from_start_km": 6.4, "station_index": 102}, "geometry": {"type": "Point", "coordinates": [2.3829597, 48.8339034]}}, {"type": "Feature", "properties": {"feature_type": "station", "name": "Mairie du 12ème", "code": "463517", "transport_type": "bus", "distance_from_start_km": 6.5, "station_index": 103}, "geometry": {"type": "Point", "coordinates": [2.3872557, 48.841198]}}, {"type": "Feature", "properties": {"feature_type": "station", "name": "Pont de Tolbiac", "code": "463686", "transport_type": "bus", "distance_from_start_km": 6.5, "station_index": 104}, "geometry": {"type": "Point", "coordinates": [2.379517, 48.832528]}}, {"type": "Feature", "properties": {"feature_type": "station", "name": "Pierre Bourdan", "code": "25310", "transport_type": "bus", "distance_from_start_km": 6.6, "station_index": 105}, "geometry": {"type": "Point", "coordinates": [2.3903777, 48.8478239]}}, {"type": "Feature", "properties": {"feature_type": "station", "name": "Bercy - Arena", "code": "27046", "transport_type": "bus", "distance_from_start_km": 6.7, "station_index": 106}, "geometry": {"type": "Point", "coordinates": [2.3820263, 48.8378326]}}, {"type": "Feature", "properties": {"feature_type": "station", "name": "Paris, Bercy Seine", "code": "5435709535", "transport_type": "bus", "distance_from_start_km": 6.7, "station_index": 107}, "geometry": {"type": "Point", "coordinates": [2.3800937, 48.835681]}}, {"type": "Feature", "properties": {"feature_type": "station", "name": "Gare de Bercy", "code": "25723", "transport_type": "bus", "distance_from_start_km": 6.7, "station_index": 108}, "geometry": {"type": "Point", "coordinates": [2.3815489, 48.8400419]}}, {"type": "Feature", "properties": {"feature_type": "station", "name": "Pont de Tolbiac", "code": "37225", "transport_type": "bus", "distance_from_start_km": 6.9, "station_index": 109}, "geometry": {"type": "Point", "coordinates": [2.3790472, 48.831907]}}, {"type": "Feature", "properties": {"feature_type": "station", "name": "Émile Durkheim", "code": "463611", "transport_type": "bus", "distance_from_start_km": 7.0, "station_index": 110}, "geometry": {"type": "Point", "coordinates": [2.377924, 48.832574]}}, {"type": "Feature", "properties": {"feature_type": "station", "name": "Patay - Tolbiac", "code": "2276", "transport_type": "bus", "distance_from_start_km": 7.1, "station_index": 111}, "geometry": {"type": "Point", "coordinates": [2.3708966, 48.8280361]}}, {"type": "Feature", "properties": {"feature_type": "station", "name": "Bibliothèque Nationale de France", "code": "24021", "transport_type": "bus", "distance_from_start_km": 7.2, "station_index": 112}, "geometry": {"type": "Point", "coordinates": [2.3733881, 48.8346575]}}, {"type": "Feature", "properties": {"feature_type": "station", "name": "Bercy - Aréna", "code": "463685", "transport_type": "bus", "distance_from_start_km": 7.3, "station_index": 113}, "geometry": {"type": "Point", "coordinates": [2.3775251, 48.8392653]}}, {"type": "Feature", "properties": {"feature_type": "station", "name": "Quai de la Gare", "code": "420012", "transport_type": "bus", "distance_from_start_km": 7.4, "station_index": 114}, "geometry": {"type": "Point", "coordinates": [2.3741304, 48.8372512]}}, {"type": "Feature", "properties": {"feature_type": "station", "name": "Quai de la Gare", "code": "463524", "transport_type": "bus", "distance_from_start_km": 7.5, "station_index": 115}, "geometry": {"type": "Point", "coordinates": [2.3732266, 48.8373983]}}, {"type": "Feature", "properties": {"feature_type": "station", "name": "Vincent Auriol", "code": "37564", "transport_type": "bus", "distance_from_start_km": 7.5, "station_index": 116}, "geometry": {"type": "Point", "coordinates": [2.3711911, 48.8366664]}}, {"type": "Feature", "properties": {"feature_type": "station", "name": "Quai d'Austerlitz", "code": "463816", "transport_type": "bus", "distance_from_start_km": 7.6, "station_index": 117}, "geometry": {"type": "Point", "coordinates": [2.3719991, 48.8390427]}}, {"type": "Feature", "properties": {"feature_type": "station", "name": "Clisson", "code": "478617", "transport_type": "bus", "distance_from_start_km": 7.6, "station_index": 118}, "geometry": {"type": "Point", "coordinates": [2.3657155, 48.831857]}}, {"type": "Feature", "properties": {"feature_type": "station", "name": "Daumesnil - Diderot", "code": "39850", "transport_type": "bus", "distance_from_start_km": 7.7, "station_index": 119}, "geometry": {"type": "Point", "coordinates": [2.3770203, 48.846574]}}, {"type": "Feature", "properties": {"feature_type": "station", "name": "Gare de Lyon - Maison de la RATP", "code": "421409", "transport_type": "bus", "distance_from_start_km": 7.7, "station_index": 120}, "geometry": {"type": "Point", "coordinates": [2.3741968, 48.8432203]}}, {"type": "Feature", "properties": {"feature_type": "station", "name": "Gare de Lyon", "code": "39396", "transport_type": "bus", "distance_from_start_km": 7.8, "station_index": 121}, "geometry": {"type": "Point", "coordinates": [2.3729766, 48.8440927]}}, {"type": "Feature", "properties": {"feature_type": "station", "name": "Gymnase Japy", "code": "23659", "transport_type": "bus", "distance_from_start_km": 7.9, "station_index": 122}, "geometry": {"type": "Point", "coordinates": [2.3830046, 48.8560383]}}, {"type": "Feature", "properties": {"feature_type": "station", "name": "Gare de Lyon - Maison de la RATP", "code": "463580", "transport_type": "bus", "distance_from_start_km": 8.0, "station_index": 123}, "geometry": {"type": "Point", "coordinates": [2.3734064, 48.8436565]}}, {"type": "Feature", "properties": {"feature_type": "station", "name": "Gymnase Japy", "code": "23632", "transport_type": "bus", "distance_from_start_km": 8.1, "station_index": 124}, "geometry": {"type": "Point", "coordinates": [2.3813951, 48.8560465]}}, {"type": "Feature", "properties": {"feature_type": "station", "name": "Cité de la Mode et du Design", "code": "463814", "transport_type": "bus", "distance_from_start_km": 8.1, "station_index": 125}, "geometry": {"type": "Point", "coordinates": [2.3699007, 48.840587]}}, {"type": "Feature", "properties": {"feature_type": "station", "name": "Van Gogh", "code": "427369", "transport_type": "bus", "distance_from_start_km": 8.1, "station_index": 126}, "geometry": {"type": "Point", "coordinates": [2.3722249, 48.8441358]}}, {"type": "Feature", "properties": {"feature_type": "station", "name": "Ledru-Rollin - Faubourg Saint-Antoine", "code": "22498", "transport_type": "bus", "distance_from_start_km": 8.2, "station_index": 127}, "geometry": {"type": "Point", "coordinates": [2.3757423, 48.8509784]}}, {"type": "Feature", "properties": {"feature_type": "station", "name": "Cité de la Mode et du Design", "code": "37557", "transport_type": "bus", "distance_from_start_km": 8.2, "station_index": 128}, "geometry": {"type": "Point", "coordinates": [2.3686069, 48.8407606]}}, {"type": "Feature", "properties": {"feature_type": "station", "name": "Gare de Lyon - Diderot", "code": "22494", "transport_type": "bus", "distance_from_start_km": 8.2, "station_index": 129}, "geometry": {"type": "Point", "coordinates": [2.3714303, 48.8457012]}}, {"type": "Feature", "properties": {"feature_type": "station", "name": "Pont Charles de Gaulle", "code": "463581", "transport_type": "bus", "distance_from_start_km": 8.2, "station_index": 130}, "geometry": {"type": "Point", "coordinates": [2.3699073, 48.8434626]}}, {"type": "Feature", "properties": {"feature_type": "station", "name": "Gare d'Austerlitz", "code": "471030", "transport_type": "bus", "distance_from_start_km": 8.3, "station_index": 131}, "geometry": {"type": "Point", "coordinates": [2.3679639, 48.8415364]}}, {"type": "Feature", "properties": {"feature_type": "station", "name": "Daumesnil - Ledru-Rollin", "code": "39750", "transport_type": "bus", "distance_from_start_km": 8.3, "station_index": 132}, "geometry": {"type": "Point", "coordinates": [2.3728278, 48.8488943]}}, {"type": "Feature", "properties": {"feature_type": "station", "name": "Popincourt", "code": "26306", "transport_type": "bus", "distance_from_start_km": 8.3, "station_index": 133}, "geometry": {"type": "Point", "coordinates": [2.3783131, 48.856906]}}, {"type": "Feature", "properties": {"feature_type": "station", "name": "Quai de la Rapée", "code": "36167", "transport_type": "bus", "distance_from_start_km": 8.4, "station_index": 134}, "geometry": {"type": "Point", "coordinates": [2.3687587, 48.8453889]}}, {"type": "Feature", "properties": {"feature_type": "station", "name": "Paris Austerlitz", "code": "PAZ", "transport_type": "train", "distance_from_start_km": 8.4, "station_index": 135}, "geometry": {"type": "Point", "coordinates": [2.3664552, 48.841244]}}, {"type": "Feature", "properties": {"feature_type": "station", "name": "Place d'Italie - Auriol", "code": "29811", "transport_type": "bus", "distance_from_start_km": 8.4, "station_index": 136}, "geometry": {"type": "Point", "coordinates": [2.3577518, 48.831322]}}, {"type": "Feature", "properties": {"feature_type": "station", "name": "Lyon - Ledru-Rollin", "code": "28393", "transport_type": "bus", "distance_from_start_km": 8.5, "station_index": 137}, "geometry": {"type": "Point", "coordinates": [2.3709715, 48.8487118]}}, {"type": "Feature", "properties": {"feature_type": "station", "name": "Quai de la Rapée", "code": "463583", "transport_type": "bus", "distance_from_start_km": 8.5, "station_index": 138}, "geometry": {"type": "Point", "coordinates": [2.3672844, 48.8461317]}}, {"type": "Feature", "properties": {"feature_type": "station", "name": "Gare d'Austerlitz - Cour Seine", "code": "463812", "transport_type": "bus", "distance_from_start_km": 8.6, "station_index": 139}, "geometry": {"type": "Point", "coordinates": [2.3656594, 48.8436546]}}, {"type": "Feature", "properties": {"feature_type": "station", "name": "Chemin Vert - Parmentier", "code": "26309", "transport_type": "bus", "distance_from_start_km": 8.6, "station_index": 140}, "geometry": {"type": "Point", "coordinates": [2.3775333, 48.8599893]}}, {"type": "Feature", "properties": {"feature_type": "station", "name": "Gare d'Austerlitz", "code": "22717", "transport_type": "bus", "distance_from_start_km": 8.6, "station_index": 141}, "geometry": {"type": "Point", "coordinates": [2.3652724, 48.8436066]}}, {"type": "Feature", "properties": {"feature_type": "station", "name": "Gare d'Austerlitz", "code": "427367", "transport_type": "bus", "distance_from_start_km": 8.7, "station_index": 142}, "geometry": {"type": "Point", "coordinates": [2.3642177, 48.8431091]}}, {"type": "Feature", "properties": {"feature_type": "station", "name": "Bastille - Faubourg Saint-Antoine", "code": "36553", "transport_type": "bus", "distance_from_start_km": 8.7, "station_index": 143}, "geometry": {"type": "Point", "coordinates": [2.3711457, 48.8527352]}}, {"type": "Feature", "properties": {"feature_type": "station", "name": "Gare d'Austerlitz", "code": "37723", "transport_type": "bus", "distance_from_start_km": 8.7, "station_index": 144}, "geometry": {"type": "Point", "coordinates": [2.3643669, 48.8446351]}}, {"type": "Feature", "properties": {"feature_type": "station", "name": "Bastille", "code": "463562", "transport_type": "bus", "distance_from_start_km": 8.8, "station_index": 145}, "geometry": {"type": "Point", "coordinates": [2.369738, 48.8515433]}}, {"type": "Feature", "properties": {"feature_type": "station", "name": "Port de l'Arsenal", "code": "463537", "transport_type": "bus", "distance_from_start_km": 8.8, "station_index": 146}, "geometry": {"type": "Point", "coordinates": [2.3652713, 48.8476958]}}, {"type": "Feature", "properties": {"feature_type": "station", "name": "Banquier", "code": "25741", "transport_type": "bus", "distance_from_start_km": 8.9, "station_index": 147}, "geometry": {"type": "Point", "coordinates": [2.3538567, 48.8341029]}}, {"type": "Feature", "properties": {"feature_type": "station", "name": "Buffon - Jardin des Plantes", "code": "22322", "transport_type": "bus", "distance_from_start_km": 8.9, "station_index": 148}, "geometry": {"type": "Point", "coordinates": [2.3593721, 48.8421032]}}, {"type": "Feature", "properties": {"feature_type": "station", "name": "Port Henri IV", "code": "463540", "transport_type": "bus", "distance_from_start_km": 8.9, "station_index": 149}, "geometry": {"type": "Point", "coordinates": [2.364517, 48.8474526]}}, {"type": "Feature", "properties": {"feature_type": "station", "name": "Bastille - Henri IV", "code": "463959", "transport_type": "bus", "distance_from_start_km": 9.0, "station_index": 150}, "geometry": {"type": "Point", "coordinates": [2.3665193, 48.8523341]}}, {"type": "Feature", "properties": {"feature_type": "station", "name": "Buffon - La Mosquée", "code": "28009", "transport_type": "bus", "distance_from_start_km": 9.1, "station_index": 151}, "geometry": {"type": "Point", "coordinates": [2.3559671, 48.8408769]}}, {"type": "Feature", "properties": {"feature_type": "station", "name": "Cuvier", "code": "25725", "transport_type": "bus", "distance_from_start_km": 9.2, "station_index": 152}, "geometry": {"type": "Point", "coordinates": [2.3607116, 48.8471335]}}, {"type": "Feature", "properties": {"feature_type": "station", "name": "Sully - Morland", "code": "36306", "transport_type": "bus", "distance_from_start_km": 9.2, "station_index": 153}, "geometry": {"type": "Point", "coordinates": [2.3630751, 48.8512399]}}, {"type": "Feature", "properties": {"feature_type": "station", "name": "Cuvier", "code": "25728", "transport_type": "bus", "distance_from_start_km": 9.2, "station_index": 154}, "geometry": {"type": "Point", "coordinates": [2.3603011, 48.847185]}}, {"type": "Feature", "properties": {"feature_type": "station", "name": "Université Paris VI", "code": "28422", "transport_type": "bus", "distance_from_start_km": 9.4, "station_index": 155}, "geometry": {"type": "Point", "coordinates": [2.3584221, 48.8484507]}}, {"type": "Feature", "properties": {"feature_type": "station", "name": "Université Paris VI", "code": "25729", "transport_type": "bus", "distance_from_start_km": 9.5, "station_index": 156}, "geometry": {"type": "Point", "coordinates": [2.3577402, 48.8491339]}}, {"type": "Feature", "properties": {"feature_type": "station", "name": "Buffon - La Mosquée", "code": "22323", "transport_type": "bus", "distance_from_start_km": 9.5, "station_index": 157}, "geometry": {"type": "Point", "coordinates": [2.3558325, 48.8417779]}}, {"type": "Feature", "properties": {"feature_type": "station", "name": "Institut du Monde Arabe", "code": "37561", "transport_type": "bus", "distance_from_start_km": 9.6, "station_index": 158}, "geometry": {"type": "Point", "coordinates": [2.3558926, 48.8490884]}}, {"type": "Feature", "properties": {"feature_type": "station", "name": "Pont Sully - Quai de Béthune", "code": "27228", "transport_type": "bus", "distance_from_start_km": 9.7, "station_index": 159}, "geometry": {"type": "Point", "coordinates": [2.3592827, 48.8502634]}}, {"type": "Feature", "properties": {"feature_type": "station", "name": "République", "code": "28400", "transport_type": "bus", "distance_from_start_km": 9.8, "station_index": 160}, "geometry": {"type": "Point", "coordinates": [2.3642266, 48.8666866]}}, {"type": "Feature", "properties": {"feature_type": "station", "name": "Rue Vieille du Temple", "code": "24797", "transport_type": "bus", "distance_from_start_km": 9.9, "station_index": 161}, "geometry": {"type": "Point", "coordinates": [2.3604573, 48.8601438]}}, {"type": "Feature", "properties": {"feature_type": "station", "name": "Rue de Jouy", "code": "37546", "transport_type": "bus", "distance_from_start_km": 9.9, "station_index": 162}, "geometry": {"type": "Point", "coordinates": [2.3580647, 48.8554638]}}, {"type": "Feature", "properties": {"feature_type": "station", "name": "Île Saint-Louis", "code": "26184", "transport_type": "bus", "distance_from_start_km": 10.0, "station_index": 163}, "geometry": {"type": "Point", "coordinates": [2.356346, 48.8516741]}}, {"type": "Feature", "properties": {"feature_type": "station", "name": "Pont Marie", "code": "28008", "transport_type": "bus", "distance_from_start_km": 10.0, "station_index": 164}, "geometry": {"type": "Point", "coordinates": [2.35671, 48.8538053]}}, {"type": "Feature", "properties": {"feature_type": "station", "name": "Saint-Germain - Cardinal Lemoine", "code": "28634", "transport_type": "bus", "distance_from_start_km": 10.1, "station_index": 165}, "geometry": {"type": "Point", "coordinates": [2.3538348, 48.849381]}}, {"type": "Feature", "properties": {"feature_type": "station", "name": "Pont Louis Philippe", "code": "28020", "transport_type": "bus", "distance_from_start_km": 10.3, "station_index": 166}, "geometry": {"type": "Point", "coordinates": [2.3554871, 48.8540705]}}, {"type": "Feature", "properties": {"feature_type": "station", "name": "Hôtel de Ville", "code": "478394", "transport_type": "bus", "distance_from_start_km": 10.4, "station_index": 167}, "geometry": {"type": "Point", "coordinates": [2.3519245, 48.8554921]}}, {"type": "Feature", "properties": {"feature_type": "station", "name": "Quai aux Fleurs-Pont Saint-Louis", "code": "463541", "transport_type": "bus", "distance_from_start_km": 10.4, "station_index": 168}, "geometry": {"type": "Point", "coordinates": [2.3522234, 48.8529575]}}, {"type": "Feature", "properties": {"feature_type": "station", "name": "Hôtel de Ville", "code": "478392", "transport_type": "bus", "distance_from_start_km": 10.4, "station_index": 169}, "geometry": {"type": "Point", "coordinates": [2.3514882, 48.8556689]}}, {"type": "Feature", "properties": {"feature_type": "station", "name": "Pont d'Arcole", "code": "463552", "transport_type": "bus", "distance_from_start_km": 10.4, "station_index": 170}, "geometry": {"type": "Point", "coordinates": [2.3509995, 48.8547418]}}, {"type": "Feature", "properties": {"feature_type": "station", "name": "Pont de l'Archevêché", "code": "36737", "transport_type": "bus", "distance_from_start_km": 10.5, "station_index": 171}, "geometry": {"type": "Point", "coordinates": [2.351709, 48.8510118]}}, {"type": "Feature", "properties": {"feature_type": "station", "name": "Maubert - Mutualité", "code": "7799077065", "transport_type": "bus", "distance_from_start_km": 10.6, "station_index": 172}, "geometry": {"type": "Point", "coordinates": [2.3500457, 48.8496379]}}, {"type": "Feature", "properties": {"feature_type": "station", "name": "Lycée Henri IV", "code": "23323", "transport_type": "bus", "distance_from_start_km": 10.6, "station_index": 173}, "geometry": {"type": "Point", "coordinates": [2.3487092, 48.8462688]}}, {"type": "Feature", "properties": {"feature_type": "station", "name": "Maubert - Mutualité", "code": "37121", "transport_type": "bus", "distance_from_start_km": 10.6, "station_index": 174}, "geometry": {"type": "Point", "coordinates": [2.3493951, 48.8496379]}}, {"type": "Feature", "properties": {"feature_type": "station", "name": "Berthollet - Vauquelin", "code": "25291", "transport_type": "bus", "distance_from_start_km": 10.6, "station_index": 175}, "geometry": {"type": "Point", "coordinates": [2.3454041, 48.8406165]}}, {"type": "Feature", "properties": {"feature_type": "station", "name": "Lagrange", "code": "26729", "transport_type": "bus", "distance_from_start_km": 10.7, "station_index": 176}, "geometry": {"type": "Point", "coordinates": [2.348028, 48.8518729]}}, {"type": "Feature", "properties": {"feature_type": "station", "name": "Hôtel de Ville", "code": "422525", "transport_type": "bus", "distance_from_start_km": 10.8, "station_index": 177}, "geometry": {"type": "Point", "coordinates": [2.3502365, 48.8561475]}}, {"type": "Feature", "properties": {"feature_type": "station", "name": "Cité - Parvis Notre-Dame", "code": "24443", "transport_type": "bus", "distance_from_start_km": 10.9, "station_index": 178}, "geometry": {"type": "Point", "coordinates": [2.3477855, 48.8549237]}}, {"type": "Feature", "properties": {"feature_type": "station", "name": "Notre-Dame", "code": "8306787544", "transport_type": "bus", "distance_from_start_km": 10.9, "station_index": 179}, "geometry": {"type": "Point", "coordinates": [2.3472175, 48.8539449]}}]}